{"type": "FeatureCollection", "features": [{"type": "Feature", "geometry": {"type": "Point", "coordinates": [2.441347, 48.844231]}, "properties": {"numparc": 4930, "etat de la localisation": "autre", "ID BDGEO": "501", "horodatage": "2021-05-12 22:57:00", "distance (en metres)": 55.19, "station": "CHATEAU DE VINCENNES.", "marker-color": "#818181"}}, {"type": "Feature", "geometry": {"type": "Point", "coordinates": [2.441347, 48.844231]}, "properties": {"numparc": 4930, "etat de la localisation": "autre", "ID BDGEO": "501", "horodatage": "2021-05-12 23:00:01", "distance (en metres)": 55.19, "station": "CHATEAU DE VINCENNES.", "marker-color": "#818181"}}, {"type": "Feature", "geometry": {"type": "Point", "coordinates": [2.436937, 48.846996]}, "properties": {"numparc": 4930, "etat de la localisation": "autre", "ID BDGEO": "569", "horodatage": "2021-05-12 23:27:39", "distance (en metres)": 44.14, "station": "VINCENNES RER", "marker-color": "#818181"}}, {"type": "Feature", "geometry": {"type": "Point", "coordinates": [2.433468, 48.868675]}, "properties": {"numparc": 4930, "etat de la localisation": "autre", "ID BDGEO": "548", "horodatage": "2021-05-12 23:41:59", "distance (en metres)": 955.72, "station": "MONTREUIL-ROUGET DE LISLE", "marker-color": "#818181"}}, {"type": "Feature", "geometry": {"type": "Point", "coordinates": [2.429326, 48.872974]}, "properties": {"numparc": 4930, "etat de la localisation": "autre", "ID BDGEO": "613", "horodatage": "2021-05-12 23:44:01", "distance (en metres)": 101.32, "station": "STALINGRAD", "marker-color": "#818181"}}, {"type": "Feature", "geometry": {"type": "Point", "coordinates": [2.425375, 48.87635]}, "properties": {"numparc": 4930, "etat de la localisation": "autre", "ID BDGEO": "615", "horodatage": "2021-05-12 23:45:22", "distance (en metres)": 127.98, "station": "GIRARDOT", "marker-color": "#818181"}}, {"type": "Feature", "geometry": {"type": "Point", "coordinates": [2.407792, 48.876453]}, "properties": {"numparc": 4930, "etat de la localisation": "autre", "ID BDGEO": "505", "horodatage": "2021-05-12 23:52:45", "distance (en metres)": 1362.24, "station": "DEPOT LES LILAS(E)", "marker-color": "#818181"}}, {"type": "Feature", "geometry": {"type": "Point", "coordinates": [2.427377, 48.878792]}, "properties": {"numparc": 4930, "etat de la localisation": "autre", "ID BDGEO": "771", "horodatage": "2021-05-13 01:00:42", "distance (en metres)": 128.86, "station": "DEPOT LES LILAS (S)", "marker-color": "#818181"}}, {"type": "Feature", "geometry": {"type": "Point", "coordinates": [2.440593, 48.844244]}, "properties": {"station": "CHATEAU DE VINCENNES.", "ID BDGEO": "501", "marker-color": "#56B3FF"}}, {"type": "Feature", "geometry": {"type": "Point", "coordinates": [2.436936, 48.847393]}, "properties": {"station": "VINCENNES RER", "ID BDGEO": "569", "marker-color": "#56B3FF"}}, {"type": "Feature", "geometry": {"type": "Point", "coordinates": [2.440982, 48.861644]}, "properties": {"station": "MONTREUIL-ROUGET DE LISLE", "ID BDGEO": "548", "marker-color": "#56B3FF"}}, {"type": "Feature", "geometry": {"type": "Point", "coordinates": [2.428305, 48.872358]}, "properties": {"station": "STALINGRAD", "ID BDGEO": "613", "marker-color": "#56B3FF"}}, {"type": "Feature", "geometry": {"type": "Point", "coordinates": [2.423842, 48.875794]}, "properties": {"station": "GIRARDOT", "ID BDGEO": "615", "marker-color": "#56B3FF"}}, {"type": "Feature", "geometry": {"type": "Point", "coordinates": [2.425974, 48.879118]}, "properties": {"station": "DEPOT LES LILAS(E)", "ID BDGEO": "505", "marker-color": "#56B3FF"}}, {"type": "Feature", "geometry": {"type": "Point", "coordinates": [2.42908, 48.879089]}, "properties": {"station": "DEPOT LES LILAS (S)", "ID BDGEO": "771", "marker-color": "#56B3FF"}}]}